airport_code,latitude,longitude
ATL,33.6407,-84.4277
LAX,33.9416,-118.4085
ORD,41.9742,-87.9073
DFW,32.8998,-97.0403
DEN,39.8561,-104.6737
JFK,40.6413,-73.7781
SFO,37.6213,-122.3790
SEA,47.4502,-122.3088
MIA,25.7959,-80.2870
LAS,36.0840,-115.1537
PHX,33.4342,-112.0116
CLT,35.2144,-80.9473
EWR,40.6895,-74.1745
IAH,29.9902,-95.3368
BOS,42.3656,-71.0096
MSP,44.8848,-93.2223
DTW,42.2162,-83.3554
PHL,39.8744,-75.2424
LGA,40.7769,-73.8740
BWI,39.1754,-76.6684